{
    "status":0,
    "message":"ok",
    "total":400,
    "results":[
        {
            "name":"后海公园",
            "location":{
                "lat":39.948224,
                "lng":116.389169
            },
            "address":"北京市西城区松树街1号",
            "province":"北京市",
            "city":"北京市",
            "area":"西城区",
            "street_id":"7aea43b721dd95e17d29bda4",
            "detail":1,
            "uid":"7aea43b721dd95e17d29bda4",
            "detail_info":{
                "tag":"旅游景点;公园",
                "navi_location":{
                    "lng":116.38864586804,
                    "lat":39.947822400829
                },
                "type":"scope",
                "detail_url":"http://api.map.baidu.com/place/detail?uid=7aea43b721dd95e17d29bda4&output=html&source=placeapi_v2",
                "overall_rating":"4.5",
                "comment_num":"170",
                "children":[]
            }
        },
        {
            "name":"南海子公园",
            "location":{
                "lat":39.779482,
                "lng":116.475558
            },
            "address":"黄亦路16号",
            "province":"北京市",
            "city":"北京市",
            "area":"大兴区",
            "street_id":"f1f5cac51d653e8137b06ce4",
            "telephone":"(010)69271456",
            "detail":1,
            "uid":"f1f5cac51d653e8137b06ce4",
            "detail_info":{
                "tag":"旅游景点;公园",
                "navi_location":{
                    "lng":116.473783,
                    "lat":39.774117087262
                },
                "type":"scope",
                "detail_url":"http://api.map.baidu.com/place/detail?uid=f1f5cac51d653e8137b06ce4&output=html&source=placeapi_v2",
                "overall_rating":"4.6",
                "comment_num":"45",
                "children":[]
            }
        },
        {
            "name":"通州大运河森林公园",
            "location":{
                "lat":39.8824,
                "lng":116.748887
            },
            "address":"北京市通州区宋梁路南段",
            "province":"北京市",
            "city":"北京市",
            "area":"通州区",
            "telephone":"(010)61569200",
            "detail":1,
            "uid":"b3f6f9b15dbf37754c6d46e2",
            "detail_info":{
                "tag":"旅游景点;公园",
                "navi_location":{
                    "lng":116.74665617499,
                    "lat":39.881968511162
                },
                "type":"scope",
                "detail_url":"http://api.map.baidu.com/place/detail?uid=b3f6f9b15dbf37754c6d46e2&output=html&source=placeapi_v2",
                "overall_rating":"4.4",
                "comment_num":"100",
                "children":[]
            }
        },
        {
            "name":"海淀公园",
            "location":{
                "lat":39.99242,
                "lng":116.302269
            },
            "address":"北京市海淀区新建宫门路2号",
            "province":"北京市",
            "city":"北京市",
            "area":"海淀区",
            "street_id":"92df8c20d3c448cf52e5c5f5",
            "detail":1,
            "uid":"92df8c20d3c448cf52e5c5f5",
            "detail_info":{
                "tag":"旅游景点;公园",
                "navi_location":{
                    "lng":116.30585759746,
                    "lat":39.994127358518
                },
                "type":"scope",
                "detail_url":"http://api.map.baidu.com/place/detail?uid=92df8c20d3c448cf52e5c5f5&output=html&source=placeapi_v2",
                "overall_rating":"4.1",
                "comment_num":"200",
                "children":[]
            }
        },
        {
            "name":"月坛公园",
            "location":{
                "lat":39.922132,
                "lng":116.358874
            },
            "address":"北京市西城区月坛北街6号",
            "province":"北京市",
            "city":"北京市",
            "area":"西城区",
            "street_id":"06881d62cb48756c7069d3f4",
            "telephone":"(010)68020940",
            "detail":1,
            "uid":"06881d62cb48756c7069d3f4",
            "detail_info":{
                "tag":"旅游景点;文物古迹",
                "navi_location":{
                    "lng":116.35891118402,
                    "lat":39.923993975523
                },
                "type":"scope",
                "detail_url":"http://api.map.baidu.com/place/detail?uid=06881d62cb48756c7069d3f4&output=html&source=placeapi_v2",
                "overall_rating":"4.0",
                "comment_num":"100",
                "children":[]
            }
        },
        {
            "name":"龙潭公园",
            "location":{
                "lat":39.884561,
                "lng":116.447239
            },
            "address":"北京市东城区龙潭路8号",
            "province":"北京市",
            "city":"北京市",
            "area":"东城区",
            "street_id":"090059e354c3dd9114b54b97",
            "telephone":"(010)67144336",
            "detail":1,
            "uid":"090059e354c3dd9114b54b97",
            "detail_info":{
                "tag":"旅游景点;风景区",
                "navi_location":{
                    "lng":116.44709723227,
                    "lat":39.887279611974
                },
                "type":"scope",
                "detail_url":"http://api.map.baidu.com/place/detail?uid=090059e354c3dd9114b54b97&output=html&source=placeapi_v2",
                "overall_rating":"4.4",
                "comment_num":"100",
                "children":[]
            }
        },
        {
            "name":"日坛公园",
            "location":{
                "lat":39.921342,
                "lng":116.450437
            },
            "address":"北京朝阳门外日坛北路6号",
            "province":"北京市",
            "city":"北京市",
            "area":"朝阳区",
            "street_id":"3dc9befd7c6f810fbea240fe",
            "telephone":"(010)85616301",
            "detail":1,
            "uid":"3dc9befd7c6f810fbea240fe",
            "detail_info":{
                "tag":"旅游景点;风景区",
                "navi_location":{
                    "lng":116.44782392999,
                    "lat":39.921275984907
                },
                "type":"scope",
                "detail_url":"http://api.map.baidu.com/place/detail?uid=3dc9befd7c6f810fbea240fe&output=html&source=placeapi_v2",
                "overall_rating":"4.5",
                "comment_num":"100",
                "children":[]
            }
        },
        {
            "name":"北海公园",
            "location":{
                "lat":39.934556,
                "lng":116.395167
            },
            "address":"北京市西城区文津街1号",
            "province":"北京市",
            "city":"北京市",
            "area":"西城区",
            "street_id":"49d959381b59a043c61e5102",
            "telephone":"(010)64040610,(010)64033225",
            "detail":1,
            "uid":"49d959381b59a043c61e5102",
            "detail_info":{
                "tag":"旅游景点;风景区",
                "navi_location":{
                    "lng":116.39622434792,
                    "lat":39.928644063374
                },
                "type":"scope",
                "detail_url":"http://api.map.baidu.com/place/detail?uid=49d959381b59a043c61e5102&output=html&source=placeapi_v2",
                "overall_rating":"4.6",
                "comment_num":"100",
                "children":[]
            }
        },
        {
            "name":"玉渊潭公园",
            "location":{
                "lat":39.922467,
                "lng":116.326526
            },
            "address":"北京市海淀区西三环中路10号",
            "province":"北京市",
            "city":"北京市",
            "area":"海淀区",
            "street_id":"3810c87916332c8b9d09f7b2",
            "telephone":"(010)88653800",
            "detail":1,
            "uid":"3810c87916332c8b9d09f7b2",
            "detail_info":{
                "tag":"旅游景点;风景区",
                "navi_location":{
                    "lng":116.31710474177,
                    "lat":39.923671634717
                },
                "type":"scope",
                "detail_url":"http://api.map.baidu.com/place/detail?uid=3810c87916332c8b9d09f7b2&output=html&source=placeapi_v2",
                "overall_rating":"4.2",
                "comment_num":"100",
                "children":[]
            }
        },
        {
            "name":"念坛公园",
            "location":{
                "lat":39.711304,
                "lng":116.319487
            },
            "address":"新源大街(近义和庄地铁站)",
            "province":"北京市",
            "city":"北京市",
            "area":"大兴区",
            "street_id":"de134f5dc2c5a2fb82288aca",
            "telephone":"(010)61210476",
            "detail":1,
            "uid":"de134f5dc2c5a2fb82288aca",
            "detail_info":{
                "tag":"旅游景点;公园",
                "navi_location":{
                    "lng":116.32753558598,
                    "lat":39.71371448522
                },
                "type":"scope",
                "detail_url":"http://api.map.baidu.com/place/detail?uid=de134f5dc2c5a2fb82288aca&output=html&source=placeapi_v2",
                "overall_rating":"4.4",
                "comment_num":"100",
                "children":[]
            }
        },
        {
            "name":"陶然亭公园",
            "location":{
                "lat":39.88066,
                "lng":116.388442
            },
            "address":"北京市西城区太平街19号",
            "province":"北京市",
            "city":"北京市",
            "area":"西城区",
            "street_id":"fa01e9378b06f14a774ff1f0",
            "telephone":"(010)63511596",
            "detail":1,
            "uid":"fa01e9378b06f14a774ff1f0",
            "detail_info":{
                "tag":"旅游景点;风景区",
                "navi_location":{
                    "lng":116.39381642113,
                    "lat":39.882520032911
                },
                "type":"scope",
                "detail_url":"http://api.map.baidu.com/place/detail?uid=fa01e9378b06f14a774ff1f0&output=html&source=placeapi_v2",
                "overall_rating":"4.4",
                "comment_num":"100",
                "children":[]
            }
        },
        {
            "name":"奥林匹克森林公园",
            "location":{
                "lat":40.027453,
                "lng":116.398516
            },
            "address":"北京市朝阳区科荟路33号",
            "province":"北京市",
            "city":"北京市",
            "area":"朝阳区",
            "street_id":"03d7e5971f3675483c9a5e9e",
            "telephone":"(010)64529090,(010)64529060",
            "detail":1,
            "uid":"03d7e5971f3675483c9a5e9e",
            "detail_info":{
                "tag":"旅游景点;风景区",
                "navi_location":{
                    "lng":116.40813941651,
                    "lat":40.02738743706
                },
                "type":"scope",
                "detail_url":"http://api.map.baidu.com/place/detail?uid=03d7e5971f3675483c9a5e9e&output=html&source=placeapi_v2",
                "overall_rating":"4.4",
                "comment_num":"200",
                "children":[]
            }
        },
        {
            "name":"莲花池公园",
            "location":{
                "lat":39.898299,
                "lng":116.319518
            },
            "address":"北京市丰台区西三环南路38号",
            "province":"北京市",
            "city":"北京市",
            "area":"丰台区",
            "street_id":"edbd1d7e2b8a8760471a3244",
            "telephone":"(010)63982357,(010)63972892",
            "detail":1,
            "uid":"edbd1d7e2b8a8760471a3244",
            "detail_info":{
                "tag":"旅游景点;公园",
                "navi_location":{
                    "lng":116.3172262331,
                    "lat":39.897917698131
                },
                "type":"scope",
                "detail_url":"http://api.map.baidu.com/place/detail?uid=edbd1d7e2b8a8760471a3244&output=html&source=placeapi_v2",
                "overall_rating":"4.1",
                "comment_num":"200",
                "children":[]
            }
        },
        {
            "name":"紫竹院公园",
            "location":{
                "lat":39.948064,
                "lng":116.325818
            },
            "address":"北京市海淀区中关村南大街35号",
            "province":"北京市",
            "city":"北京市",
            "area":"海淀区",
            "street_id":"49c6ce91c412a12c8d772700",
            "telephone":"(010)68425851",
            "detail":1,
            "uid":"49c6ce91c412a12c8d772700",
            "detail_info":{
                "tag":"旅游景点;风景区",
                "navi_location":{
                    "lng":116.32202091899,
                    "lat":39.946392377119
                },
                "type":"scope",
                "detail_url":"http://api.map.baidu.com/place/detail?uid=49c6ce91c412a12c8d772700&output=html&source=placeapi_v2",
                "overall_rating":"4.6",
                "comment_num":"200",
                "children":[]
            }
        },
        {
            "name":"梨园主题公园",
            "location":{
                "lat":39.880777,
                "lng":116.684007
            },
            "address":"北京市通州区梨园镇九棵树东路",
            "province":"北京市",
            "city":"北京市",
            "area":"通州区",
            "street_id":"175603966ba67aa9b4265515",
            "detail":1,
            "uid":"175603966ba67aa9b4265515",
            "detail_info":{
                "tag":"旅游景点;公园",
                "navi_location":{
                    "lng":116.68744100763,
                    "lat":39.879336978819
                },
                "type":"scope",
                "detail_url":"http://api.map.baidu.com/place/detail?uid=175603966ba67aa9b4265515&output=html&source=placeapi_v2",
                "overall_rating":"3.8",
                "comment_num":"56",
                "children":[]
            }
        },
        {
            "name":"北宫国家森林公园",
            "location":{
                "lat":39.871839,
                "lng":116.12471
            },
            "address":"北京市丰台区长辛店镇大灰厂东路55号",
            "province":"北京市",
            "city":"北京市",
            "area":"丰台区",
            "street_id":"f60a15ed8f5278ecbb17e704",
            "telephone":"(010)83840830",
            "detail":1,
            "uid":"f60a15ed8f5278ecbb17e704",
            "detail_info":{
                "tag":"旅游景点;风景区",
                "navi_location":{
                    "lng":116.129089,
                    "lat":39.865599080839
                },
                "type":"scope",
                "detail_url":"http://api.map.baidu.com/place/detail?uid=f60a15ed8f5278ecbb17e704&output=html&source=placeapi_v2",
                "overall_rating":"4.0",
                "comment_num":"109",
                "children":[]
            }
        },
        {
            "name":"北京动物园",
            "location":{
                "lat":39.947735,
                "lng":116.343376
            },
            "address":"北京市西城区西直门外大街137号",
            "province":"北京市",
            "city":"北京市",
            "area":"西城区",
            "street_id":"4bb049d91598944799005000",
            "telephone":"(010)68314411,(010)68390274",
            "detail":1,
            "uid":"4bb049d91598944799005000",
            "detail_info":{
                "tag":"旅游景点;动物园",
                "navi_location":{
                    "lng":116.34531849036,
                    "lat":39.944191992334
                },
                "type":"scope",
                "detail_url":"http://api.map.baidu.com/place/detail?uid=4bb049d91598944799005000&output=html&source=placeapi_v2",
                "overall_rating":"4.2",
                "comment_num":"371",
                "children":[]
            }
        },
        {
            "name":"北京奥林匹克公园",
            "location":{
                "lat":39.999603,
                "lng":116.400494
            },
            "address":"北京市朝阳区北辰东路15号",
            "province":"北京市",
            "city":"北京市",
            "area":"朝阳区",
            "street_id":"451614f6ebe67020843304a2",
            "telephone":"(010)84992008",
            "detail":1,
            "uid":"451614f6ebe67020843304a2",
            "detail_info":{
                "tag":"出入口;门",
                "navi_location":{
                    "lng":116.40548402991,
                    "lat":39.994873345474
                },
                "type":"scope",
                "detail_url":"http://api.map.baidu.com/place/detail?uid=451614f6ebe67020843304a2&output=html&source=placeapi_v2",
                "price":"30",
                "overall_rating":"4.8",
                "comment_num":"10",
                "children":[]
            }
        },
        {
            "name":"北京野生动物园",
            "location":{
                "lat":39.502531,
                "lng":116.342213
            },
            "address":"北京市大兴区榆垡镇万亩森林内",
            "province":"北京市",
            "city":"北京市",
            "area":"大兴区",
            "street_id":"e85e2527b6f7615395f08cf8",
            "telephone":"(010)89216606",
            "detail":1,
            "uid":"e85e2527b6f7615395f08cf8",
            "detail_info":{
                "tag":"旅游景点;动物园",
                "navi_location":{
                    "lng":116.32936938595,
                    "lat":39.503047664253
                },
                "type":"scope",
                "detail_url":"http://api.map.baidu.com/place/detail?uid=e85e2527b6f7615395f08cf8&output=html&source=placeapi_v2",
                "overall_rating":"4.5",
                "comment_num":"100",
                "children":[]
            }
        },
        {
            "name":"北京植物园",
            "location":{
                "lat":40.007561,
                "lng":116.216186
            },
            "address":"北京市海淀区香山南路",
            "province":"北京市",
            "city":"北京市",
            "area":"海淀区",
            "street_id":"550fd5f9c8d53478931fc9c4",
            "telephone":"(010)82598771",
            "detail":1,
            "uid":"550fd5f9c8d53478931fc9c4",
            "detail_info":{
                "tag":"旅游景点;植物园",
                "navi_location":{
                    "lng":116.216342,
                    "lat":39.999807069994
                },
                "type":"scope",
                "detail_url":"http://api.map.baidu.com/place/detail?uid=550fd5f9c8d53478931fc9c4&output=html&source=placeapi_v2",
                "overall_rating":"4.4",
                "comment_num":"100",
                "children":[]
            }
        }
    ]
}